[
  {
    "id": "svc-0001",
    "name": "1ª Notaría de Santiago – Rodrigo Farías Picón (Interino)",
    "type": "notaria",
    "address": "Huérfanos 1160 oficina 101-102",
    "comuna": "Santiago",
    "lat": "-33.4399409783733",
    "lon": "-70.65312304713623",
    "phone": "2-2426 8583",
    "hours": "Lun-Vie 09:00 / 17:00",
    "free_level": "",
    "tags": "",
    "updated_at": "2025-11-15"
  },
  {
    "id": "svc-0002",
    "name": "6ª Notaría de Santiago – Alberto Rojas López",
    "type": "notaria",
    "address": "Bandera 465 oficina 201",
    "comuna": "Santiago",
    "lat": "-33.43797396078907",
    "lon": "-70.6524385398118",
    "phone": "2-2696 6427",
    "hours": "Lun-Jue 09:30–14:00 / 15:30–17:00, Vie 09:30–16:00",
    "free_level": "",
    "tags": "",
    "updated_at": "2025-11-15"
  },
  {
    "id": "svc-0003",
    "name": "7ª Notaría de Santiago – Christián Ortiz Cáceres (Interino)",
    "type": "notaria",
    "address": "Agustinas 1161 entrepiso",
    "comuna": "Santiago",
    "lat": "-33.440900855343585",
    "lon": "-70.65297012362804",
    "phone": "2-2429 4250",
    "hours": "Lun-Vie 09:00–14:00 / 15:00–17:00",
    "free_level": "",
    "tags": "",
    "updated_at": "2025-11-15"
  },
  {
    "id": "svc-0004",
    "name": "8ª Notaría de Santiago – Luis Ignacio Manquehual Mery",
    "type": "notaria",
    "address": "Huérfanos 941 local 302",
    "comuna": "Santiago",
    "lat": "-33.43938869942817",
    "lon": "-70.6501421917302",
    "phone": "2-2490 7900",
    "hours": "Lun-Vie 09:30–14:00 / 15:00–17:30",
    "free_level": "",
    "tags": "",
    "updated_at": "2025-11-15"
  },
  {
    "id": "svc-0005",
    "name": "9ª Notaría de Santiago – Pablo González Caamaño",
    "type": "notaria",
    "address": "Teatinos 333 entrepiso",
    "comuna": "Santiago",
    "lat": "-33.439510167364425",
    "lon": "-70.65514493193209",
    "phone": "2-2672 6061",
    "hours": "Lun-Vie 09:00–14:00 / 15:00–17:00",
    "free_level": "",
    "tags": "",
    "updated_at": "2025-11-15"
  },
  {
    "id": "svc-0006",
    "name": "10ª Notaría de Santiago – Valeria Ronchera Flores",
    "type": "notaria",
    "address": "Agustinas 1235 piso 2",
    "comuna": "Santiago",
    "lat": "-33.44107623635208",
    "lon": "-70.65465374207587",
    "phone": "2-2865 0420",
    "hours": "Lun-Vie 09:00–14:00 / 15:00–17:00",
    "free_level": "",
    "tags": "",
    "updated_at": "2025-11-15"
  },
  {
    "id": "svc-0007",
    "name": "12ª Notaría de Santiago – Hernán José Retamal Grimberg",
    "type": "notaria",
    "address": "Teatinos 331",
    "comuna": "Santiago",
    "lat": "-33.43959197300444",
    "lon": "-70.65517974128561",
    "phone": "2-3339 5980",
    "hours": "Lun-Vie 8:30 / 17:00",
    "free_level": "",
    "tags": "",
    "updated_at": "2025-11-15"
  },
  {
    "id": "svc-0008",
    "name": "14ª Notaría de Santiago – Sergio Rodríguez Uribe",
    "type": "notaria",
    "address": "Teatinos 449 piso 6",
    "comuna": "Santiago",
    "lat": "-33.43841354102741",
    "lon": "-70.6552227856052",
    "phone": "2-3249 1544",
    "hours": "Lun-Vie 09:00–14:00 / 15:00–17:30",
    "free_level": "",
    "tags": "",
    "updated_at": "2025-11-15"
  },
  {
    "id": "svc-0009",
    "name": "17ª Notaría de Santiago – María Angélica Galán Bauerle",
    "type": "notaria",
    "address": "Ahumada 236 piso 3",
    "comuna": "Santiago",
    "lat": "-33.440338821984795",
    "lon": "-70.65101007239605",
    "phone": "2-3278 2450",
    "hours": "Lun-Vie 09:00–13:30 / 15:00–17:00",
    "free_level": "",
    "tags": "",
    "updated_at": "2025-11-15"
  },

  {
    "id": "svc-0011",
    "name": "19ª Notaría de Santiago – Pedro Reveco Hormazábal",
    "type": "notaria",
    "address": "Bandera 341 oficina 352",
    "comuna": "Santiago",
    "lat": "-33.4392729500733",
    "lon": "-70.6520494722842",
    "phone": "2-2721 7000",
    "hours": "Lun-Vie 09:00–14:00 / 15:00–18:00",
    "free_level": "",
    "tags": "",
    "updated_at": "2025-11-15"
  },
  
  {
    "id": "svc-0012",
    "name": "21ª Notaría de Santiago – Myriam Amigo Arancibia",
    "type": "notaria",
    "address": "Huérfanos 578",
    "comuna": "Santiago",
    "lat": "-33.439183685738456",
    "lon": "-70.64519940690906",
    "phone": "2-2706 4900",
    "hours": "Lun-Vie 09:00 / 18:00",
    "free_level": "",
    "tags": "",
    "updated_at": "2025-11-15"
  },

  {
    "id": "svc-0013",
    "name": "23ª Notaría de Santiago – Renata González Carvallo",
    "type": "notaria",
    "address": "Catedral 1265",
    "comuna": "Santiago",
    "lat": "",
    "lon": "",
    "phone": "2-2662 1831",
    "hours": "Lun-Vie 09:30–13:30 / 14:30–17:00",
    "free_level": "",
    "tags": "",
    "updated_at": "2025-11-15"
  },

  {
    "id": "svc-0014",
    "name": "25ª Notaría de Santiago – Zaida Angélica Sepúlveda Rivera (Interina)",
    "type": "notaria",
    "address": "Amunátegui 361 local 6",
    "comuna": "Santiago",
    "lat": "-33.43952279246912",
    "lon": "-70.65659961080465",
    "phone": "2-3339 1410",
    "hours": "Lun-Mar 08:30 / 16:00, Mié-Jue 08:30 / 17:00, Vie 08:30 / 16:30",
    "free_level": "",
    "tags": "",
    "updated_at": "2025-11-15"
  },

  {
    "id": "svc-0015",
    "name": "29ª Notaría de Santiago – Evaldo Rehbein Utreras",
    "type": "notaria",
    "address": "Mac Iver 225 oficina 302",
    "comuna": "Santiago",
    "lat": "-33.440040882974564",
    "lon": "-70.64647655822155",
    "phone": "2-2633 5225",
    "hours": "desconocido",
    "free_level": "",
    "tags": "",
    "updated_at": "2025-11-15"
  },

  {
    "id": "svc-0016",
    "name": "30ª Notaría de Santiago – Octavio Gutiérrez López",
    "type": "notaria",
    "address": "Av. Libertador B. O'Higgins 980 oficinas 134–135",
    "comuna": "Santiago",
    "lat": "-33.444139077282685",
    "lon": "-70.65015827473604",
    "phone": "2-2633 9287",
    "hours": "Lun-Jue 08:00–13:30 / 14:30–16:00, Vie 08:00–14:00",
    "free_level": "",
    "tags": "",
    "updated_at": "2025-11-15"
  },

  {
    "id": "svc-0017",
    "name": "31ª Notaría de Santiago – Olimpia Schneider Moenne-Loccoz",
    "type": "notaria",
    "address": "Huérfanos 1055 local 328",
    "comuna": "Santiago",
    "lat": "-33.43941341327345",
    "lon": "-70.65176592107902",
    "phone": "2-2672 3008",
    "hours": "Lun-Vie 9:30 / 17:00",
    "free_level": "",
    "tags": "",
    "updated_at": "2025-11-15"
  },

  {
    "id": "svc-0018",
    "name": "32ª Notaría de Santiago – Francisco Varas Fernández",
    "type": "notaria",
    "address": "Phillips 23",
    "comuna": "Santiago",
    "lat": "-33.4374434816498",
    "lon": "-70.649344570427",
    "phone": "2-2638 1270",
    "hours": "Lun-Vie 09:00 / 17:00",
    "free_level": "",
    "tags": "",
    "updated_at": "2025-11-15"
  },

  {
    "id": "svc-0019",
    "name": "33ª Notaría de Santiago – Iván Torrealba Acevedo",
    "type": "notaria",
    "address": "Huérfanos 979 piso 5 oficina 501",
    "comuna": "Santiago",
    "lat": "-33.439484847038656",
    "lon": "-70.65064134232713",
    "phone": "2-2898 9800",
    "hours": "Lun-Vie 09:30–14:00 / 15:00–17:00",
    "free_level": "",
    "tags": "",
    "updated_at": "2025-11-15"
  },

  {
    "id": "svc-0020",
    "name": "35ª Notaría de Santiago – Felipe Andrés Jopia Navarro",
    "type": "notaria",
    "address": "Paseo Bulnes 141",
    "comuna": "Santiago",
    "lat": "-33.44717905298429",
    "lon": "-70.65303881953349",
    "phone": "2-2925 3772",
    "hours": "Lun-Jue 09:00 / 16:30, Vie 09:00 / 16:00",
    "free_level": "",
    "tags": "",
    "updated_at": "2025-11-15"
  },

  {
    "id": "svc-0021",
    "name": "37ª Notaría de Santiago – Nancy de la Fuente Hernández",
    "type": "notaria",
    "address": "Huérfanos 1117 oficina 1014",
    "comuna": "Santiago",
    "lat": "-33.43959752412606",
    "lon": "-70.65270880870295",
    "phone": "2-2768 5000",
    "hours": "Lun-Jue 09:00 / 16:30, Vie 09:00 / 16:00",
    "free_level": "",
    "tags": "",
    "updated_at": "2025-11-15"
  },

  {
    "id": "svc-0022",
    "name": "40ª Notaría de Santiago – Rodrigo Sotomayor Graepp (Interino)",
    "type": "notaria",
    "address": "Teatinos 332",
    "comuna": "Santiago",
    "lat": "-33.439685056438485",
    "lon": "-70.65567417139384",
    "phone": "2-2297 7400",
    "hours": "Lun-Jue 09:00–14:00 / 15:00–16:30, Vie 09:00 / 14:00",
    "free_level": "",
    "tags": "",
    "updated_at": "2025-11-15"
  },

  {
    "id": "svc-0023",
    "name": "41ª Notaría de Santiago – Félix Jara Cadot",
    "type": "notaria",
    "address": "Huérfanos 1160 subterráneo",
    "comuna": "Santiago",
    "lat": "-33.44013708646467",
    "lon": "-70.65308898562094",
    "phone": "2-2674 4600",
    "hours": "Lun-Vie 09:30–14:00 / 15:00–17:00",
    "free_level": "",
    "tags": "",
    "updated_at": "2025-11-15"
  },

  {
    "id": "svc-0024",
    "name": "42ª Notaría de Santiago – Álvaro González Salinas",
    "type": "notaria",
    "address": "Agustinas 1070 piso 2",
    "comuna": "Santiago",
    "lat": "-33.41758962905705",
    "lon": "-70.59827000043234",
    "phone": "2-2490 3800",
    "hours": "Lun-Jue 09:00–14:00 / 15:00–17:00, Vie 09:00–14:00 / 15:00–16:00",
    "free_level": "",
    "tags": "",
    "updated_at": "2025-11-15"
  },

  {
    "id": "svc-0025",
    "name": "45ª Notaría de Santiago – Juan Francisco Álamos Ovejero (Interino)",
    "type": "notaria",
    "address": "Huérfanos 979 piso 7",
    "comuna": "Santiago",
    "lat": "-33.43948607361688",
    "lon": "-70.65063880525958",
    "phone": "2-2940 1400",
    "hours": "Lun-Vie 08:45–14:00 / 15:15–17:00",
    "free_level": "",
    "tags": "",
    "updated_at": "2025-11-15"
  },

  {
    "id": "svc-0026",
    "name": "49ª Notaría de Santiago – Wladimir Alejandro Schramm López",
    "type": "notaria",
    "address": "Amunátegui 73",
    "comuna": "Santiago",
    "lat": "-33.4429745932532",
    "lon": "-70.65577750849118",
    "phone": "2-2889 3900",
    "hours": "Lun-Vie 09:00 / 17:30",
    "free_level": "",
    "tags": "",
    "updated_at": "2025-11-15"
  },

  {
    "id": "svc-0027",
    "name": "50ª Notaría de Santiago – Claudia Marcela Gómez Lucares",
    "type": "notaria",
    "address": "Teatinos 371 oficina 113",
    "comuna": "Santiago",
    "lat": "-33.43926581218695",
    "lon": "-70.65521608637417",
    "phone": "2-2841 9916",
    "hours": "Lun-Vie 09:00–14:00 / 15:00–17:00",
    "free_level": "",
    "tags": "",
    "updated_at": "2025-11-15"
  },

  {
    "id": "svc-0028",
    "name": "2º Juzgado de Garantía de Santiago",
    "type": "tribunal",
    "address": "Av. Pedro Montt 1606 Torre B Centro de Justicia",
    "comuna": "Santiago",
    "lat": "-33.47393352738322",
    "lon": "-70.6569534752764",
    "phone": "desconocido",
    "hours": "Lun-Vie 08:30 / 13:00",
    "free_level": "",
    "tags": "",
    "updated_at": "2025-11-15"
  },

  {
    "id": "svc-0029",
    "name": "3º Juzgado de Garantía de Santiago",
    "type": "tribunal",
    "address": "Av. Pedro Montt 1606 Torre F Centro de Justicia",
    "comuna": "Santiago",
    "lat": "-33.4735047932168",
    "lon": "-70.65681169319822",
    "phone": "desconocido",
    "hours": "Lun-Vie 08:30 / 13:00",
    "free_level": "",
    "tags": "",
    "updated_at": "2025-11-15"
  },

  {
    "id": "svc-0030",
    "name": "2º Tribunal Oral en lo Penal de Santiago",
    "type": "tribunal",
    "address": "Av. Pedro Montt 1606 Torre D Centro de Justicia",
    "comuna": "Santiago",
    "lat": "-33.47393352738322",
    "lon": "-70.6569534752764",
    "phone": "desconocido",
    "hours": "Lun-Vie 08:30 / 13:00",
    "free_level": "",
    "tags": "",
    "updated_at": "2025-11-15"
  },

  {
    "id": "svc-0031",
    "name": "Fiscalía Regional Metropolitana Centro Norte",
    "type": "fiscalia",
    "address": "Av. Pedro Montt 1606",
    "comuna": "Santiago",
    "lat": "-33.47393352738322",
    "lon": "-70.6569534752764",
    "phone": "600 333 0000 / 2-2965 7000",
    "hours": "Lunes a Viernes 08:30–13:00",
    "free_level": "",
    "tags": "",
    "updated_at": "2025-11-15"
  },
  {
    "id": "svc-0032",
    "name": "Fiscalía Local Santiago Centro",
    "type": "fiscalia",
    "address": "Av. Pedro Montt 1606",
    "comuna": "Santiago",
    "lat": "-33.47393352738322",
    "lon": "-70.6569534752764",
    "phone": "desconocido",
    "hours": "Lunes a Viernes 08:30–13:00",
    "free_level": "",
    "tags": "",
    "updated_at": "2025-11-15"
  },

  {
    "id": "svc-0033",
    "name": "Registro Civil Santiago Centro",
    "type": "registro_civil",
    "address": "Huérfanos 1570",
    "comuna": "Santiago",
    "lat": "-33.4405430566479",
    "lon": "-70.65884228803145",
    "phone": "+56 2 2611 4301",
    "hours": "Lunes a Viernes 08:30–14:00",
    "free_level": "",
    "tags": "",
    "updated_at": "2025-11-15"
  },
  {
    "id": "svc-0034",
    "name": "Registro Civil Oficina Bicentenario",
    "type": "registro_civil",
    "address": "Moneda 1342",
    "comuna": "Santiago",
    "lat": "-33.442486006130515",
    "lon": "-70.6551960300282",
    "phone": "600 370 2000",
    "hours": "Lunes a Viernes 08:30–14:00",
    "free_level": "",
    "tags": "",
    "updated_at": "2025-11-15"
  },

  {
    "id": "svc-0035",
    "name": "Centro de Mediación y Arbitraje CAJ",
    "type": "centro_mediacion",
    "address": "Teatinos 20 oficina 47",
    "comuna": "Santiago",
    "lat": "-33.44394008452767",
    "lon": "-70.65447181802573",
    "phone": "+56 2 2937 1432 / +56 2 2937 1427",
    "hours": "desconocido",
    "free_level": "",
    "tags": "",
    "updated_at": "2025-11-15"
  },

  {
    "id": "svc-0036",
    "name": "CAJ Metropolitana Dirección Regional Norte",
    "type": "caj",
    "address": "Agustinas 1419 piso 6",
    "comuna": "Santiago",
    "lat": "-33.44127178845901",
    "lon": "-70.65675214793437",
    "phone": "+56 2 2937 1146",
    "hours": "Mar-Vie 09:00-12:15 / 14:30-16:15",
    "free_level": "",
    "tags": "",
    "updated_at": "2025-11-15"
  },
  {
    "id": "svc-0037",
    "name": "CAJ Metropolitana Dirección Regional Sur",
    "type": "caj",
    "address": "Agustinas 1419 piso 6",
    "comuna": "Santiago",
    "lat": "-33.44119612711848",
    "lon": "-70.65657392461088",
    "phone": "+56 2 2937 1390",
    "hours": "desconocido",
    "free_level": "",
    "tags": "",
    "updated_at": "2025-11-15"
  },
  {
    "id": "svc-0038",
    "name": "CAJ Centro de Atención al Usuario",
    "type": "caj",
    "address": "Agustinas 1419",
    "comuna": "Santiago",
    "lat": "-33.44126551049168",
    "lon": "-70.65667450744552",
    "phone": "800 02 5000",
    "hours": "Martes y Jueves 08:30–12:30",
    "free_level": "",
    "tags": "",
    "updated_at": "2025-11-15"
  },

  {
    "id": "svc-00039",
    "name": "Notaría Gabriel Ogalde (3ª Notaría)",
    "type": "notaria",
    "address": "Av. Libertador Bernardo O’Higgins 2102",
    "comuna": "Estación Central",
    "lat": "-33.44760867194836",
    "lon": "-70.6649416288357",
    "phone": "+56 2 2779 9815 / +56 2 2778 4332",
    "hours": "Lun-Vie 09:00 / 18:30",
    "free_level": "",
    "tags": "",
    "updated_at": "2025-11-15"
  },
  {
    "id": "svc-00040",
    "name": "Primera Notaría de Santiago Gabriel R. Nahuel López (Asiento Estación Central)",
    "type": "notaria",
    "address": "Mall Plaza Alameda, Local 106 (Nivel 0)",
    "comuna": "Estación Central",
    "lat": "-33.45256182728682",
    "lon": "-70.68249780007449",
    "phone": "+56 9 2226 8049",
    "hours": "Lun-Vie de 09:00 / 17:00; Sab 09:00 / 13:00",
    "free_level": "",
    "tags": "",
    "updated_at": "2025-11-15"
  },
  {
    "id": "svc-00041",
    "name": "1° Juzgado de Policía Local de Estación Central",
    "type": "tribunal",
    "address": "Av. Ecuador 4336",
    "comuna": "Estación Central",
    "lat": "-33.45284308703889",
    "lon": "-70.6958372408172",
    "phone": "+56 2 2677 3597",
    "hours": "Lun-Vie 09:00 / 14:00",
    "free_level": "",
    "tags": "",
    "updated_at": "2025-11-15"
  },
  {
    "id": "svc-00042",
    "name": "2° Juzgado de Policía Local de Estación Central",
    "type": "tribunal",
    "address": "Av. Ecuador 4336",
    "comuna": "Estación Central",
    "lat": "-33.45279945846634",
    "lon": "-70.69560566586811",
    "phone": "+56 2 2677 3597",
    "hours": "Lun-Vie 09:00 / 14:00",
    "free_level": "",
    "tags": "",
    "updated_at": "2025-11-15"
  },
  {
    "id": "svc-00043",
    "name": "Registro Civil e Identificación - Estación Central",
    "type": "registro civil",
    "address": "Av. Libertador Bernardo O’Higgins 3470 (Mallplaza Alameda)",
    "comuna": "Estación Central",
    "lat": "-33.45210072684334",
    "lon": "-70.68219277553526",
    "phone": "600 370 2000",
    "hours": "Lun-Vie 08:30 / 14:00",
    "free_level": "",
    "tags": "",
    "updated_at": "2025-11-15"
  },

  {
    "id": "svc-00044",
    "name": "Notaría Alfredo Martin Illanes",
    "type": "notaria",
    "address": "Mardoqueo Fernández 193, Locales 101-102",
    "comuna": "Providencia",
    "lat": "",
    "lon": "",
    "phone": "+56 2 3255 8964",
    "hours": "Lun-Vie 09:15 / 13:45, 14:45 / 17:00",
    "free_level": "",
    "tags": "",
    "updated_at": "2025-11-15"
  },
  {
    "id": "svc-00045",
    "name": "Notaría Tobalaba – Francisco Hollmann",
    "type": "notaria",
    "address": "Av. Providencia 2600",
    "comuna": "Providencia",
    "lat": "",
    "lon": "",
    "phone": "+56 9 8176 2788",
    "hours": "Lun-Jue 09:15 / 14:00, 15:00 / 16:45; Vie 09:15 / 15:45",
    "free_level": "",
    "tags": "",
    "updated_at": "2025-11-15"
  },
  {
    "id": "svc-00046",
    "name": "1ª Notaría Providencia – Luis Eduardo Rodríguez",
    "type": "notaria",
    "address": "Av. Providencia 1777",
    "comuna": "Providencia",
    "lat": "",
    "lon": "",
    "phone": "+56 2 2235 5616",
    "hours": "Lun-Mar-Jue 08:30 / 13:30, 15:00 / 17:15; Mié-Vie 08:30 / 13:30, 15:00 / 16:45; Sáb 09:30 / 13:30",
    "free_level": "",
    "tags": "",
    "updated_at": "2025-11-15"
  },
  {
    "id": "svc-00047",
    "name": "Notaría 36 Andrés Rieutord Alvarado",
    "type": "notaria",
    "address": "La Concepción 65, Piso 2",
    "comuna": "Providencia",
    "lat": "",
    "lon": "",
    "phone": "+56 2 3246 8500",
    "hours": "Lun-Vie 09:00 / 13:30, 15:00 / 17:30",
    "free_level": "",
    "tags": "",
    "updated_at": "2025-11-15"
  },
  {
    "id": "svc-00048",
    "name": "Notaría Eduardo Diez Morello",
    "type": "notaria",
    "address": "Av. Luis Thayer Ojeda 359",
    "comuna": "Providencia",
    "lat": "",
    "lon": "",
    "phone": "+56 2 2896 3390",
    "hours": "Lun-Vie 09:00 / 16:30",
    "free_level": "",
    "tags": "",
    "updated_at": "2025-11-15"
  },
  {
    "id": "svc-00049",
    "name": "Notaría Luis Fernando Celis Urrutia",
    "type": "notaria",
    "address": "Av. Luis Thayer Ojeda / Av. Tobalaba 045",
    "comuna": "Providencia",
    "lat": "",
    "lon": "",
    "phone": "+56 2 2692 3000",
    "hours": "Lun-Jue 09:00 / 17:45; Vie 09:00 / 17:00",
    "free_level": "",
    "tags": "",
    "updated_at": "2025-11-15"
  },
  {
    "id": "svc-00050",
    "name": "Notaría María Patricia Donoso Gomien",
    "type": "notaria",
    "address": "Orrego Luco 153",
    "comuna": "Providencia",
    "lat": "",
    "lon": "",
    "phone": "+56 2 2620 0400",
    "hours": "Lun-Vie 09:00 / 13:45, 15:00 / 17:30",
    "free_level": "",
    "tags": "",
    "updated_at": "2025-11-15"
  },
  {
    "id": "svc-00051",
    "name": "Notaría Alejandra Loyola Ojeda",
    "type": "notaria",
    "address": "Av. Tobalaba 1469",
    "comuna": "Providencia",
    "lat": "",
    "lon": "",
    "phone": "+56 9 4213 5660",
    "hours": "Lun-Jue 09:00 / 17:30; Vie 09:00 / 17:00; Sáb 09:30 / 13:30",
    "free_level": "",
    "tags": "",
    "updated_at": "2025-11-15"
  },
  {
    "id": "svc-00052",
    "name": "1° Juzgado de Policía Local de Providencia",
    "type": "tribunal",
    "address": "La Concepción 46, Piso 2, Locales 3-4, Edificio Palladio",
    "comuna": "Providencia",
    "lat": "",
    "lon": "",
    "phone": "+56 2 2654 3100",
    "hours": "Lun-Vie 08:30 / 14:00",
    "free_level": "",
    "tags": "",
    "updated_at": "2025-11-15"
  },
  {
    "id": "svc-00053",
    "name": "2° Juzgado de Policía Local de Providencia",
    "type": "tribunal",
    "address": "La Concepción 46, Piso 2, Edificio Palladio",
    "comuna": "Providencia",
    "lat": "",
    "lon": "",
    "phone": "+56 2 2654 3090",
    "hours": "Lun-Vie 08:30 / 14:00",
    "free_level": "",
    "tags": "",
    "updated_at": "2025-11-15"
  },
  {
    "id": "svc-00054",
    "name": "3° Juzgado de Policía Local de Providencia",
    "type": "tribunal",
    "address": "La Concepción 46, Piso 2, Edificio Palladio",
    "comuna": "Providencia",
    "lat": "",
    "lon": "",
    "phone": "+56 2 2654 3072",
    "hours": "Lun-Vie 08:30 / 14:00",
    "free_level": "",
    "tags": "",
    "updated_at": "2025-11-15"
  },
  {
    "id": "svc-00055",
    "name": "Oficina del Registro Civil e Identificación de Providencia",
    "type": "registro civil",
    "address": "Av. Andrés Bello 1963",
    "comuna": "Providencia",
    "lat": "",
    "lon": "",
    "phone": "600 370 2000",
    "hours": "Lun-Vie 08:30 / 14:00",
    "free_level": "",
    "tags": "",
    "updated_at": "2025-11-15"
  },
  {
    "id": "svc-00056",
    "name": "Centro de Mediación Familiar El Alba",
    "type": "centro de mediacion",
    "address": "Santa Magdalena 10, Oficina 41",
    "comuna": "Providencia",
    "lat": "",
    "lon": "",
    "phone": "+56 9 8883 8170",
    "hours": "Lun-Vie 09:00 / 19:00",
    "free_level": "",
    "tags": "",
    "updated_at": "2025-11-15"
  },
  {
    "id": "svc-00057",
    "name": "Centro de Atención Providencia – Corporación de Asistencia Judicial",
    "type": "caj",
    "address": "Marchant Pereira 887",
    "comuna": "Providencia",
    "lat": "",
    "lon": "",
    "phone": "desconocido",
    "hours": "Lun-Vie 09:00 / 14:00, 15:00 / 17:00",
    "free_level": "",
    "tags": "",
    "updated_at": "2025-11-15"
  }
]